{"type":"FeatureCollection","features":[{"type":"Feature","properties":{"name":"Vatican City","iso_a2":"VA","pop_max":832},"bbox":[12.453387,41.903282,12.453387,41.903282],"geometry":{"type":"Point","coordinates":[12.4534,41.9033]}},{"type":"Feature","properties":{"name":"San Marino","iso_a2":"SM","pop_max":29579},"bbox":[12.44177,43.936096,12.44177,43.936096],"geometry":{"type":"Point","coordinates":[12.4418,43.9361]}},{"type":"Feature","properties":{"name":"Vaduz","iso_a2":"LI","pop_max":36281},"bbox":[9.51667,47.133724,9.51667,47.133724],"geometry":{"type":"Point","coordinates":[9.5167,47.1337]}},{"type":"Feature","properties":{"name":"Lobamba","iso_a2":"SZ","pop_max":9782},"bbox":[31.199997,-26.466667,31.199997,-26.466667],"geometry":{"type":"Point","coordinates":[31.2,-26.4667]}},{"type":"Feature","properties":{"name":"Luxembourg","iso_a2":"LU","pop_max":107260},"bbox":[6.130003,49.61166,6.130003,49.61166],"geometry":{"type":"Point","coordinates":[6.13,49.6117]}},{"type":"Feature","properties":{"name":"Palikir","iso_a2":"FM","pop_max":4645},"bbox":[158.149974,6.916644,158.149974,6.916644],"geometry":{"type":"Point","coordinates":[158.15,6.9166]}},{"type":"Feature","properties":{"name":"Majuro","iso_a2":"MH","pop_max":25400},"bbox":[171.38,7.103004,171.38,7.103004],"geometry":{"type":"Point","coordinates":[171.38,7.103]}},{"type":"Feature","properties":{"name":"Funafuti","iso_a2":"TV","pop_max":4749},"bbox":[179.216647,-8.516652,179.216647,-8.516652],"geometry":{"type":"Point","coordinates":[179.2166,-8.5167]}},{"type":"Feature","properties":{"name":"Melekeok","iso_a2":"PW","pop_max":7026},"bbox":[134.626549,7.487396,134.626549,7.487396],"geometry":{"type":"Point","coordinates":[134.6265,7.4874]}},{"type":"Feature","properties":{"name":"Bir Lehlou","iso_a2":"EH","pop_max":500},"bbox":[-9.652522,26.119167,-9.652522,26.119167],"geometry":{"type":"Point","coordinates":[-9.6525,26.1192]}},{"type":"Feature","properties":{"name":"Monaco","iso_a2":"MC","pop_max":36371},"bbox":[7.406913,43.739646,7.406913,43.739646],"geometry":{"type":"Point","coordinates":[7.4069,43.7396]}},{"type":"Feature","properties":{"name":"Tarawa","iso_a2":"KI","pop_max":28802},"bbox":[173.017571,1.338188,173.017571,1.338188],"geometry":{"type":"Point","coordinates":[173.0176,1.3382]}},{"type":"Feature","properties":{"name":"Moroni","iso_a2":"KM","pop_max":128698},"bbox":[43.240244,-11.704158,43.240244,-11.704158],"geometry":{"type":"Point","coordinates":[43.2402,-11.7042]}},{"type":"Feature","properties":{"name":"Andorra","iso_a2":"AD","pop_max":53998},"bbox":[1.526594,42.510753,1.526594,42.510753],"geometry":{"type":"Point","coordinates":[1.5266,42.5108]}},{"type":"Feature","properties":{"name":"Port-of-Spain","iso_a2":"TT","pop_max":294934},"bbox":[-61.517031,10.651997,-61.517031,10.651997],"geometry":{"type":"Point","coordinates":[-61.517,10.652]}},{"type":"Feature","properties":{"name":"Kigali","iso_a2":"RW","pop_max":860000},"bbox":[30.058586,-1.951644,30.058586,-1.951644],"geometry":{"type":"Point","coordinates":[30.0586,-1.9516]}},{"type":"Feature","properties":{"name":"Mbabane","iso_a2":"SZ","pop_max":90138},"bbox":[31.133335,-26.316651,31.133335,-26.316651],"geometry":{"type":"Point","coordinates":[31.1333,-26.3167]}},{"type":"Feature","properties":{"name":"Juba","iso_a2":"SS","pop_max":111975},"bbox":[31.580026,4.829975,31.580026,4.829975],"geometry":{"type":"Point","coordinates":[31.58,4.83]}},{"type":"Feature","properties":{"name":"The Hague","iso_a2":"NL","pop_max":1406000},"bbox":[4.269961,52.080037,4.269961,52.080037],"geometry":{"type":"Point","coordinates":[4.27,52.08]}},{"type":"Feature","properties":{"name":"Ljubljana","iso_a2":"SI","pop_max":314807},"bbox":[14.514969,46.055288,14.514969,46.055288],"geometry":{"type":"Point","coordinates":[14.515,46.0553]}},{"type":"Feature","properties":{"name":"Bratislava","iso_a2":"SK","pop_max":423737},"bbox":[17.116981,48.150018,17.116981,48.150018],"geometry":{"type":"Point","coordinates":[17.117,48.15]}},{"type":"Feature","properties":{"name":"Doha","iso_a2":"QA","pop_max":1450000},"bbox":[51.532968,25.286556,51.532968,25.286556],"geometry":{"type":"Point","coordinates":[51.533,25.2866]}},{"type":"Feature","properties":{"name":"Podgorica","iso_a2":"ME","pop_max":145850},"bbox":[19.266307,42.465972,19.266307,42.465972],"geometry":{"type":"Point","coordinates":[19.2663,42.466]}},{"type":"Feature","properties":{"name":"Sri Jayawardenepura Kotte","iso_a2":"LK","pop_max":115826},"bbox":[79.949993,6.900004,79.949993,6.900004],"geometry":{"type":"Point","coordinates":[79.95,6.9]}},{"type":"Feature","properties":{"name":"Baguio","iso_a2":"PH","pop_max":447824},"bbox":[120.569943,16.429991,120.569943,16.429991],"geometry":{"type":"Point","coordinates":[120.5699,16.43]}},{"type":"Feature","properties":{"name":"Dodoma","iso_a2":"TZ","pop_max":218269},"bbox":[35.750004,-6.183306,35.750004,-6.183306],"geometry":{"type":"Point","coordinates":[35.75,-6.1833]}},{"type":"Feature","properties":{"name":"Bern","iso_a2":"CH","pop_max":275329},"bbox":[7.466976,46.916683,7.466976,46.916683],"geometry":{"type":"Point","coordinates":[7.467,46.9167]}},{"type":"Feature","properties":{"name":"Laayoune","iso_a2":"MA","pop_max":188084},"bbox":[-13.200006,27.149982,-13.200006,27.149982],"geometry":{"type":"Point","coordinates":[-13.2,27.15]}},{"type":"Feature","properties":{"name":"Pristina","iso_a2":"-99","pop_max":465186},"bbox":[21.165984,42.66671,21.165984,42.66671],"geometry":{"type":"Point","coordinates":[21.166,42.6667]}},{"type":"Feature","properties":{"name":"Roseau","iso_a2":"DM","pop_max":23336},"bbox":[-61.387013,15.301016,-61.387013,15.301016],"geometry":{"type":"Point","coordinates":[-61.387,15.301]}},{"type":"Feature","properties":{"name":"Djibouti","iso_a2":"DJ","pop_max":923000},"bbox":[43.148002,11.595014,43.148002,11.595014],"geometry":{"type":"Point","coordinates":[43.148,11.595]}},{"type":"Feature","properties":{"name":"Putrajaya","iso_a2":"MY","pop_max":67964},"bbox":[101.695037,2.932515,101.695037,2.932515],"geometry":{"type":"Point","coordinates":[101.695,2.9325]}},{"type":"Feature","properties":{"name":"Kyoto","iso_a2":"JP","pop_max":1805000},"bbox":[135.748052,35.031938,135.748052,35.031938],"geometry":{"type":"Point","coordinates":[135.7481,35.0319]}},{"type":"Feature","properties":{"name":"Banjul","iso_a2":"GM","pop_max":43094},"bbox":[-16.591701,13.453876,-16.591701,13.453876],"geometry":{"type":"Point","coordinates":[-16.5917,13.4539]}},{"type":"Feature","properties":{"name":"Skopje","iso_a2":"MK","pop_max":494087},"bbox":[21.433461,42.000006,21.433461,42.000006],"geometry":{"type":"Point","coordinates":[21.4335,42]}},{"type":"Feature","properties":{"name":"Bridgetown","iso_a2":"BB","pop_max":191152},"bbox":[-59.616527,13.102003,-59.616527,13.102003],"geometry":{"type":"Point","coordinates":[-59.6165,13.102]}},{"type":"Feature","properties":{"name":"Porto-Novo","iso_a2":"BJ","pop_max":300000},"bbox":[2.616626,6.483311,2.616626,6.483311],"geometry":{"type":"Point","coordinates":[2.6166,6.4833]}},{"type":"Feature","properties":{"name":"Bujumbura","iso_a2":"BI","pop_max":331700},"bbox":[29.360006,-3.376087,29.360006,-3.376087],"geometry":{"type":"Point","coordinates":[29.36,-3.3761]}},{"type":"Feature","properties":{"name":"Kingstown","iso_a2":"VC","pop_max":49485},"bbox":[-61.220236,13.155756,-61.220236,13.155756],"geometry":{"type":"Point","coordinates":[-61.2202,13.1558]}},{"type":"Feature","properties":{"name":"Castries","iso_a2":"LC","pop_max":37963},"bbox":[-60.992875,14.007875,-60.992875,14.007875],"geometry":{"type":"Point","coordinates":[-60.9929,14.0079]}},{"type":"Feature","properties":{"name":"Basseterre","iso_a2":"KN","pop_max":21887},"bbox":[-62.717009,17.302031,-62.717009,17.302031],"geometry":{"type":"Point","coordinates":[-62.717,17.302]}},{"type":"Feature","properties":{"name":"Port Louis","iso_a2":"MU","pop_max":595491},"bbox":[57.499994,-20.166639,57.499994,-20.166639],"geometry":{"type":"Point","coordinates":[57.5,-20.1666]}},{"type":"Feature","properties":{"name":"Saint George's","iso_a2":"GD","pop_max":33734},"bbox":[-61.741643,12.052633,-61.741643,12.052633],"geometry":{"type":"Point","coordinates":[-61.7416,12.0526]}},{"type":"Feature","properties":{"name":"Manama","iso_a2":"BH","pop_max":563920},"bbox":[50.583052,26.236136,50.583052,26.236136],"geometry":{"type":"Point","coordinates":[50.5831,26.2361]}},{"type":"Feature","properties":{"name":"Saint John's","iso_a2":"AG","pop_max":35499},"bbox":[-61.850034,17.118036,-61.850034,17.118036],"geometry":{"type":"Point","coordinates":[-61.85,17.118]}},{"type":"Feature","properties":{"name":"Montevideo","iso_a2":"UY","pop_max":1513000},"bbox":[-56.186823,-34.905376,-56.186823,-34.905376],"geometry":{"type":"Point","coordinates":[-56.1868,-34.9054]}},{"type":"Feature","properties":{"name":"Lomé","iso_a2":"TG","pop_max":1452000},"bbox":[1.220811,6.133883,1.220811,6.133883],"geometry":{"type":"Point","coordinates":[1.2208,6.1339]}},{"type":"Feature","properties":{"name":"Tunis","iso_a2":"TN","pop_max":2412500},"bbox":[10.179678,36.802778,10.179678,36.802778],"geometry":{"type":"Point","coordinates":[10.1797,36.8028]}},{"type":"Feature","properties":{"name":"Abu Dhabi","iso_a2":"AE","pop_max":603492},"bbox":[54.366593,24.466684,54.366593,24.466684],"geometry":{"type":"Point","coordinates":[54.3666,24.4667]}},{"type":"Feature","properties":{"name":"Ashgabat","iso_a2":"TM","pop_max":727700},"bbox":[58.383299,37.949995,58.383299,37.949995],"geometry":{"type":"Point","coordinates":[58.3833,37.95]}},{"type":"Feature","properties":{"name":"Lusaka","iso_a2":"ZM","pop_max":1328000},"bbox":[28.281382,-15.414698,28.281382,-15.414698],"geometry":{"type":"Point","coordinates":[28.2814,-15.4147]}},{"type":"Feature","properties":{"name":"Harare","iso_a2":"ZW","pop_max":1572000},"bbox":[31.042764,-17.815844,31.042764,-17.815844],"geometry":{"type":"Point","coordinates":[31.0428,-17.8158]}},{"type":"Feature","properties":{"name":"Dili","iso_a2":"TL","pop_max":234331},"bbox":[125.579456,-8.559388,125.579456,-8.559388],"geometry":{"type":"Point","coordinates":[125.5795,-8.5594]}},{"type":"Feature","properties":{"name":"Port Vila","iso_a2":"VU","pop_max":44040},"bbox":[168.316641,-17.73335,168.316641,-17.73335],"geometry":{"type":"Point","coordinates":[168.3166,-17.7334]}},{"type":"Feature","properties":{"name":"Tegucigalpa","iso_a2":"HN","pop_max":946000},"bbox":[-87.219475,14.103991,-87.219475,14.103991],"geometry":{"type":"Point","coordinates":[-87.2195,14.104]}},{"type":"Feature","properties":{"name":"Georgetown","iso_a2":"GY","pop_max":264350},"bbox":[-58.167029,6.801974,-58.167029,6.801974],"geometry":{"type":"Point","coordinates":[-58.167,6.802]}},{"type":"Feature","properties":{"name":"Reykjavík","iso_a2":"IS","pop_max":166212},"bbox":[-21.936546,64.143459,-21.936546,64.143459],"geometry":{"type":"Point","coordinates":[-21.9365,64.1435]}},{"type":"Feature","properties":{"name":"Port-au-Prince","iso_a2":"HT","pop_max":1998000},"bbox":[-72.33798,18.54297,-72.33798,18.54297],"geometry":{"type":"Point","coordinates":[-72.338,18.543]}},{"type":"Feature","properties":{"name":"Kampala","iso_a2":"UG","pop_max":1420000},"bbox":[32.581378,0.318605,32.581378,0.318605],"geometry":{"type":"Point","coordinates":[32.5814,0.3186]}},{"type":"Feature","properties":{"name":"Paramaribo","iso_a2":"SR","pop_max":254169},"bbox":[-55.167031,5.83503,-55.167031,5.83503],"geometry":{"type":"Point","coordinates":[-55.167,5.835]}},{"type":"Feature","properties":{"name":"Niamey","iso_a2":"NE","pop_max":915000},"bbox":[2.11471,13.518652,2.11471,13.518652],"geometry":{"type":"Point","coordinates":[2.1147,13.5187]}},{"type":"Feature","properties":{"name":"Dushanbe","iso_a2":"TJ","pop_max":1086244},"bbox":[68.773879,38.560035,68.773879,38.560035],"geometry":{"type":"Point","coordinates":[68.7739,38.56]}},{"type":"Feature","properties":{"name":"Asunción","iso_a2":"PY","pop_max":1870000},"bbox":[-57.625834,-25.290671,-57.625834,-25.290671],"geometry":{"type":"Point","coordinates":[-57.6258,-25.2907]}},{"type":"Feature","properties":{"name":"Managua","iso_a2":"NI","pop_max":920000},"bbox":[-86.270437,12.154962,-86.270437,12.154962],"geometry":{"type":"Point","coordinates":[-86.2704,12.155]}},{"type":"Feature","properties":{"name":"Freetown","iso_a2":"SL","pop_max":827000},"bbox":[-13.236162,8.471957,-13.236162,8.471957],"geometry":{"type":"Point","coordinates":[-13.2362,8.472]}},{"type":"Feature","properties":{"name":"Islamabad","iso_a2":"PK","pop_max":780000},"bbox":[73.08063,33.689368,73.08063,33.689368],"geometry":{"type":"Point","coordinates":[73.0806,33.6894]}},{"type":"Feature","properties":{"name":"Kathmandu","iso_a2":"NP","pop_max":895000},"bbox":[85.314696,27.718638,85.314696,27.718638],"geometry":{"type":"Point","coordinates":[85.3147,27.7186]}},{"type":"Feature","properties":{"name":"Bloemfontein","iso_a2":"ZA","pop_max":463064},"bbox":[26.229913,-29.119994,26.229913,-29.119994],"geometry":{"type":"Point","coordinates":[26.2299,-29.12]}},{"type":"Feature","properties":{"name":"Pretoria","iso_a2":"ZA","pop_max":1338000},"bbox":[28.227483,-25.704975,28.227483,-25.704975],"geometry":{"type":"Point","coordinates":[28.2275,-25.705]}},{"type":"Feature","properties":{"name":"Port Moresby","iso_a2":"PG","pop_max":283733},"bbox":[147.192504,-9.464708,147.192504,-9.464708],"geometry":{"type":"Point","coordinates":[147.1925,-9.4647]}},{"type":"Feature","properties":{"name":"Honiara","iso_a2":"SB","pop_max":76328},"bbox":[159.949766,-9.437994,159.949766,-9.437994],"geometry":{"type":"Point","coordinates":[159.9498,-9.438]}},{"type":"Feature","properties":{"name":"Panama City","iso_a2":"PA","pop_max":1281000},"bbox":[-79.534983,8.969963,-79.534983,8.969963],"geometry":{"type":"Point","coordinates":[-79.535,8.97]}},{"type":"Feature","properties":{"name":"Rabat","iso_a2":"MA","pop_max":1705000},"bbox":[-6.836408,34.025307,-6.836408,34.025307],"geometry":{"type":"Point","coordinates":[-6.8364,34.0253]}},{"type":"Feature","properties":{"name":"Chișinău","iso_a2":"MD","pop_max":688134},"bbox":[28.857711,47.005024,28.857711,47.005024],"geometry":{"type":"Point","coordinates":[28.8577,47.005]}},{"type":"Feature","properties":{"name":"Maputo","iso_a2":"MZ","pop_max":1446000},"bbox":[32.587217,-25.953332,32.587217,-25.953332],"geometry":{"type":"Point","coordinates":[32.5872,-25.9533]}},{"type":"Feature","properties":{"name":"Mogadishu","iso_a2":"SO","pop_max":1100000},"bbox":[45.364732,2.068627,45.364732,2.068627],"geometry":{"type":"Point","coordinates":[45.3647,2.0686]}},{"type":"Feature","properties":{"name":"Muscat","iso_a2":"OM","pop_max":734697},"bbox":[58.378311,23.585179,58.378311,23.585179],"geometry":{"type":"Point","coordinates":[58.3783,23.5852]}},{"type":"Feature","properties":{"name":"Colombo","iso_a2":"LK","pop_max":217000},"bbox":[79.857751,6.931966,79.857751,6.931966],"geometry":{"type":"Point","coordinates":[79.8578,6.932]}},{"type":"Feature","properties":{"name":"Ulaanbaatar","iso_a2":"MN","pop_max":885000},"bbox":[106.91467,47.918619,106.91467,47.918619],"geometry":{"type":"Point","coordinates":[106.9147,47.9186]}},{"type":"Feature","properties":{"name":"Windhoek","iso_a2":"NA","pop_max":268132},"bbox":[17.083546,-22.570006,17.083546,-22.570006],"geometry":{"type":"Point","coordinates":[17.0835,-22.57]}},{"type":"Feature","properties":{"name":"Abuja","iso_a2":"NG","pop_max":1576000},"bbox":[7.489505,9.05462,7.489505,9.05462],"geometry":{"type":"Point","coordinates":[7.4895,9.0546]}},{"type":"Feature","properties":{"name":"Bissau","iso_a2":"GW","pop_max":403339},"bbox":[-15.598361,11.865024,-15.598361,11.865024],"geometry":{"type":"Point","coordinates":[-15.5984,11.865]}},{"type":"Feature","properties":{"name":"Amman","iso_a2":"JO","pop_max":1060000},"bbox":[35.931354,31.951971,35.931354,31.951971],"geometry":{"type":"Point","coordinates":[35.9314,31.952]}},{"type":"Feature","properties":{"name":"Vilnius","iso_a2":"LT","pop_max":542366},"bbox":[25.316635,54.683366,25.316635,54.683366],"geometry":{"type":"Point","coordinates":[25.3166,54.6834]}},{"type":"Feature","properties":{"name":"Riga","iso_a2":"LV","pop_max":742572},"bbox":[24.099965,56.950024,24.099965,56.950024],"geometry":{"type":"Point","coordinates":[24.1,56.95]}},{"type":"Feature","properties":{"name":"Bishkek","iso_a2":"KG","pop_max":837000},"bbox":[74.583258,42.875025,74.583258,42.875025],"geometry":{"type":"Point","coordinates":[74.5833,42.875]}},{"type":"Feature","properties":{"name":"Maseru","iso_a2":"LS","pop_max":361324},"bbox":[27.483273,-29.316674,27.483273,-29.316674],"geometry":{"type":"Point","coordinates":[27.4833,-29.3167]}},{"type":"Feature","properties":{"name":"Antananarivo","iso_a2":"MG","pop_max":1697000},"bbox":[47.514678,-18.914691,47.514678,-18.914691],"geometry":{"type":"Point","coordinates":[47.5147,-18.9147]}},{"type":"Feature","properties":{"name":"Quito","iso_a2":"EC","pop_max":1701000},"bbox":[-78.501997,-0.213042,-78.501997,-0.213042],"geometry":{"type":"Point","coordinates":[-78.502,-0.213]}},{"type":"Feature","properties":{"name":"San José","iso_a2":"CR","pop_max":1284000},"bbox":[-84.078814,9.930371,-84.078814,9.930371],"geometry":{"type":"Point","coordinates":[-84.0788,9.9304]}},{"type":"Feature","properties":{"name":"San Salvador","iso_a2":"SV","pop_max":1433000},"bbox":[-89.215576,13.70328,-89.215576,13.70328],"geometry":{"type":"Point","coordinates":[-89.2156,13.7033]}},{"type":"Feature","properties":{"name":"Kingston","iso_a2":"JM","pop_max":937700},"bbox":[-76.767434,17.977077,-76.767434,17.977077],"geometry":{"type":"Point","coordinates":[-76.7674,17.9771]}},{"type":"Feature","properties":{"name":"N'Djamena","iso_a2":"TD","pop_max":989000},"bbox":[15.047202,12.115042,15.047202,12.115042],"geometry":{"type":"Point","coordinates":[15.0472,12.115]}},{"type":"Feature","properties":{"name":"Malabo","iso_a2":"GQ","pop_max":155963},"bbox":[8.783278,3.750015,8.783278,3.750015],"geometry":{"type":"Point","coordinates":[8.7833,3.75]}},{"type":"Feature","properties":{"name":"Asmara","iso_a2":"ER","pop_max":620802},"bbox":[38.933324,15.333339,38.933324,15.333339],"geometry":{"type":"Point","coordinates":[38.9333,15.3333]}},{"type":"Feature","properties":{"name":"Zagreb","iso_a2":"HR","pop_max":722526},"bbox":[15.999995,45.800007,15.999995,45.800007],"geometry":{"type":"Point","coordinates":[16,45.8]}},{"type":"Feature","properties":{"name":"Tallinn","iso_a2":"EE","pop_max":394024},"bbox":[24.728041,59.433877,24.728041,59.433877],"geometry":{"type":"Point","coordinates":[24.728,59.4339]}},{"type":"Feature","properties":{"name":"Lilongwe","iso_a2":"MW","pop_max":646750},"bbox":[33.783302,-13.983295,33.783302,-13.983295],"geometry":{"type":"Point","coordinates":[33.7833,-13.9833]}},{"type":"Feature","properties":{"name":"Guatemala City","iso_a2":"GT","pop_max":1024000},"bbox":[-90.528911,14.623081,-90.528911,14.623081],"geometry":{"type":"Point","coordinates":[-90.5289,14.6231]}},{"type":"Feature","properties":{"name":"Libreville","iso_a2":"GA","pop_max":578156},"bbox":[9.457965,0.385389,9.457965,0.385389],"geometry":{"type":"Point","coordinates":[9.458,0.3854]}},{"type":"Feature","properties":{"name":"Suva","iso_a2":"FJ","pop_max":175399},"bbox":[178.441707,-18.133016,178.441707,-18.133016],"geometry":{"type":"Point","coordinates":[178.4417,-18.133]}},{"type":"Feature","properties":{"name":"Valparaíso","iso_a2":"CL","pop_max":854000},"bbox":[-71.617026,-33.047739,-71.617026,-33.047739],"geometry":{"type":"Point","coordinates":[-71.617,-33.0477]}},{"type":"Feature","properties":{"name":"Nouakchott","iso_a2":"MR","pop_max":742144},"bbox":[-15.97534,18.086427,-15.97534,18.086427],"geometry":{"type":"Point","coordinates":[-15.9753,18.0864]}},{"type":"Feature","properties":{"name":"Bamako","iso_a2":"ML","pop_max":1494000},"bbox":[-8.001985,12.65196,-8.001985,12.65196],"geometry":{"type":"Point","coordinates":[-8.002,12.652]}},{"type":"Feature","properties":{"name":"Beirut","iso_a2":"LB","pop_max":1846000},"bbox":[35.507762,33.873921,35.507762,33.873921],"geometry":{"type":"Point","coordinates":[35.5078,33.8739]}},{"type":"Feature","properties":{"name":"Tbilisi","iso_a2":"GE","pop_max":1100000},"bbox":[44.78885,41.726956,44.78885,41.726956],"geometry":{"type":"Point","coordinates":[44.7888,41.727]}},{"type":"Feature","properties":{"name":"Nur-Sultan","iso_a2":"KZ","pop_max":345604},"bbox":[71.427774,51.181125,71.427774,51.181125],"geometry":{"type":"Point","coordinates":[71.4278,51.1811]}},{"type":"Feature","properties":{"name":"Vientiane","iso_a2":"LA","pop_max":754000},"bbox":[102.59998,17.966693,102.59998,17.966693],"geometry":{"type":"Point","coordinates":[102.6,17.9667]}},{"type":"Feature","properties":{"name":"Brazzaville","iso_a2":"CG","pop_max":1355000},"bbox":[15.282744,-4.25724,15.282744,-4.25724],"geometry":{"type":"Point","coordinates":[15.2827,-4.2572]}},{"type":"Feature","properties":{"name":"Conakry","iso_a2":"GN","pop_max":1494000},"bbox":[-13.682181,9.533469,-13.682181,9.533469],"geometry":{"type":"Point","coordinates":[-13.6822,9.5335]}},{"type":"Feature","properties":{"name":"Yamoussoukro","iso_a2":"CI","pop_max":206499},"bbox":[-5.275503,6.818381,-5.275503,6.818381],"geometry":{"type":"Point","coordinates":[-5.2755,6.8184]}},{"type":"Feature","properties":{"name":"Ottawa","iso_a2":"CA","pop_max":1145000},"bbox":[-75.701961,45.418643,-75.701961,45.418643],"geometry":{"type":"Point","coordinates":[-75.702,45.4186]}},{"type":"Feature","properties":{"name":"Belgrade","iso_a2":"RS","pop_max":1099000},"bbox":[20.466045,44.820591,20.466045,44.820591],"geometry":{"type":"Point","coordinates":[20.466,44.8206]}},{"type":"Feature","properties":{"name":"Bandar Seri Begawan","iso_a2":"BN","pop_max":296500},"bbox":[114.933284,4.883331,114.933284,4.883331],"geometry":{"type":"Point","coordinates":[114.9333,4.8833]}},{"type":"Feature","properties":{"name":"Sucre","iso_a2":"BO","pop_max":224838},"bbox":[-65.259516,-19.040971,-65.259516,-19.040971],"geometry":{"type":"Point","coordinates":[-65.2595,-19.041]}},{"type":"Feature","properties":{"name":"Belmopan","iso_a2":"BZ","pop_max":15220},"bbox":[-88.767073,17.252033,-88.767073,17.252033],"geometry":{"type":"Point","coordinates":[-88.7671,17.252]}},{"type":"Feature","properties":{"name":"Bangui","iso_a2":"CF","pop_max":831925},"bbox":[18.558288,4.366644,18.558288,4.366644],"geometry":{"type":"Point","coordinates":[18.5583,4.3666]}},{"type":"Feature","properties":{"name":"Yaoundé","iso_a2":"CM","pop_max":1611000},"bbox":[11.514705,3.868647,11.514705,3.868647],"geometry":{"type":"Point","coordinates":[11.5147,3.8686]}},{"type":"Feature","properties":{"name":"Tirana","iso_a2":"AL","pop_max":895350},"bbox":[19.818883,41.327541,19.818883,41.327541],"geometry":{"type":"Point","coordinates":[19.8189,41.3275]}},{"type":"Feature","properties":{"name":"Yerevan","iso_a2":"AM","pop_max":1102000},"bbox":[44.511606,40.183097,44.511606,40.183097],"geometry":{"type":"Point","coordinates":[44.5116,40.1831]}},{"type":"Feature","properties":{"name":"Baku","iso_a2":"AZ","pop_max":2122300},"bbox":[49.860271,40.397218,49.860271,40.397218],"geometry":{"type":"Point","coordinates":[49.8603,40.3972]}},{"type":"Feature","properties":{"name":"Phnom Penh","iso_a2":"KH","pop_max":1466000},"bbox":[104.914689,11.551976,104.914689,11.551976],"geometry":{"type":"Point","coordinates":[104.9147,11.552]}},{"type":"Feature","properties":{"name":"La Paz","iso_a2":"BO","pop_max":1590000},"bbox":[-68.151931,-16.496028,-68.151931,-16.496028],"geometry":{"type":"Point","coordinates":[-68.1519,-16.496]}},{"type":"Feature","properties":{"name":"Cotonou","iso_a2":"BJ","pop_max":762000},"bbox":[2.404355,6.36298,2.404355,6.36298],"geometry":{"type":"Point","coordinates":[2.4044,6.363]}},{"type":"Feature","properties":{"name":"Sofia","iso_a2":"BG","pop_max":1185000},"bbox":[23.314708,42.685295,23.314708,42.685295],"geometry":{"type":"Point","coordinates":[23.3147,42.6853]}},{"type":"Feature","properties":{"name":"Minsk","iso_a2":"BY","pop_max":1805000},"bbox":[27.564681,53.901923,27.564681,53.901923],"geometry":{"type":"Point","coordinates":[27.5647,53.9019]}},{"type":"Feature","properties":{"name":"Thimphu","iso_a2":"BT","pop_max":98676},"bbox":[89.639014,27.472986,89.639014,27.472986],"geometry":{"type":"Point","coordinates":[89.639,27.473]}},{"type":"Feature","properties":{"name":"Gaborone","iso_a2":"BW","pop_max":208411},"bbox":[25.911948,-24.646314,25.911948,-24.646314],"geometry":{"type":"Point","coordinates":[25.9119,-24.6463]}},{"type":"Feature","properties":{"name":"Canberra","iso_a2":"AU","pop_max":327700},"bbox":[149.129026,-35.283029,149.129026,-35.283029],"geometry":{"type":"Point","coordinates":[149.129,-35.283]}},{"type":"Feature","properties":{"name":"Ouagadougou","iso_a2":"BF","pop_max":1149000},"bbox":[-1.52667,12.372262,-1.52667,12.372262],"geometry":{"type":"Point","coordinates":[-1.5267,12.3723]}},{"type":"Feature","properties":{"name":"Sarajevo","iso_a2":"BA","pop_max":696731},"bbox":[18.383002,43.850022,18.383002,43.850022],"geometry":{"type":"Point","coordinates":[18.383,43.85]}},{"type":"Feature","properties":{"name":"Naypyidaw","iso_a2":"MM","pop_max":930000},"bbox":[96.116673,19.768503,96.116673,19.768503],"geometry":{"type":"Point","coordinates":[96.1167,19.7685]}},{"type":"Feature","properties":{"name":"Nuku'alofa","iso_a2":"TO","pop_max":42620},"bbox":[-175.220564,-21.138512,-175.220564,-21.138512],"geometry":{"type":"Point","coordinates":[-175.2206,-21.1385]}},{"type":"Feature","properties":{"name":"Hargeisa","iso_a2":"-99","pop_max":477876},"bbox":[44.06531,9.560022,44.06531,9.560022],"geometry":{"type":"Point","coordinates":[44.0653,9.56]}},{"type":"Feature","properties":{"name":"Victoria","iso_a2":"SC","pop_max":33576},"bbox":[55.44999,-4.616632,55.44999,-4.616632],"geometry":{"type":"Point","coordinates":[55.45,-4.6166]}},{"type":"Feature","properties":{"name":"São Tomé","iso_a2":"ST","pop_max":88219},"bbox":[6.72965,0.337466,6.72965,0.337466],"geometry":{"type":"Point","coordinates":[6.7297,0.3375]}},{"type":"Feature","properties":{"name":"Apia","iso_a2":"WS","pop_max":61916},"bbox":[-171.768599,-13.835715,-171.768599,-13.835715],"geometry":{"type":"Point","coordinates":[-171.7686,-13.8357]}},{"type":"Feature","properties":{"name":"Valletta","iso_a2":"MT","pop_max":368250},"bbox":[14.514711,35.899732,14.514711,35.899732],"geometry":{"type":"Point","coordinates":[14.5147,35.8997]}},{"type":"Feature","properties":{"name":"Malé","iso_a2":"MV","pop_max":112927},"bbox":[73.508901,4.172037,73.508901,4.172037],"geometry":{"type":"Point","coordinates":[73.5089,4.172]}},{"type":"Feature","properties":{"name":"Jerusalem","iso_a2":"IL","pop_max":1029300},"bbox":[35.206626,31.778408,35.206626,31.778408],"geometry":{"type":"Point","coordinates":[35.2066,31.7784]}},{"type":"Feature","properties":{"name":"Praia","iso_a2":"CV","pop_max":113364},"bbox":[-23.516689,14.916698,-23.516689,14.916698],"geometry":{"type":"Point","coordinates":[-23.5167,14.9167]}},{"type":"Feature","properties":{"name":"Nassau","iso_a2":"BS","pop_max":227940},"bbox":[-77.350044,25.08339,-77.350044,25.08339],"geometry":{"type":"Point","coordinates":[-77.35,25.0834]}},{"type":"Feature","properties":{"name":"Nicosia","iso_a2":"CY","pop_max":224300},"bbox":[33.366635,35.166677,33.366635,35.166677],"geometry":{"type":"Point","coordinates":[33.3666,35.1667]}},{"type":"Feature","properties":{"name":"Wellington","iso_a2":"NZ","pop_max":393400},"bbox":[174.777201,-41.292068,174.777201,-41.292068],"geometry":{"type":"Point","coordinates":[174.7772,-41.2921]}},{"type":"Feature","properties":{"name":"Hanoi","iso_a2":"VN","pop_max":4378000},"bbox":[105.848068,21.035273,105.848068,21.035273],"geometry":{"type":"Point","coordinates":[105.8481,21.0353]}},{"type":"Feature","properties":{"name":"Ankara","iso_a2":"TR","pop_max":3716000},"bbox":[32.862446,39.929184,32.862446,39.929184],"geometry":{"type":"Point","coordinates":[32.8624,39.9292]}},{"type":"Feature","properties":{"name":"Budapest","iso_a2":"HU","pop_max":1679000},"bbox":[19.081375,47.501952,19.081375,47.501952],"geometry":{"type":"Point","coordinates":[19.0814,47.502]}},{"type":"Feature","properties":{"name":"Sanaa","iso_a2":"YE","pop_max":2008000},"bbox":[44.204648,15.356679,44.204648,15.356679],"geometry":{"type":"Point","coordinates":[44.2046,15.3567]}},{"type":"Feature","properties":{"name":"Bucharest","iso_a2":"RO","pop_max":1942000},"bbox":[26.098001,44.435318,26.098001,44.435318],"geometry":{"type":"Point","coordinates":[26.098,44.4353]}},{"type":"Feature","properties":{"name":"Damascus","iso_a2":"SY","pop_max":2466000},"bbox":[36.29805,33.50198,36.29805,33.50198],"geometry":{"type":"Point","coordinates":[36.2981,33.502]}},{"type":"Feature","properties":{"name":"Lisbon","iso_a2":"PT","pop_max":2812000},"bbox":[-9.146812,38.724669,-9.146812,38.724669],"geometry":{"type":"Point","coordinates":[-9.1468,38.7247]}},{"type":"Feature","properties":{"name":"Khartoum","iso_a2":"SD","pop_max":4754000},"bbox":[32.532233,15.590024,32.532233,15.590024],"geometry":{"type":"Point","coordinates":[32.5322,15.59]}},{"type":"Feature","properties":{"name":"Oslo","iso_a2":"NO","pop_max":835000},"bbox":[10.748033,59.918636,10.748033,59.918636],"geometry":{"type":"Point","coordinates":[10.748,59.9186]}},{"type":"Feature","properties":{"name":"Warsaw","iso_a2":"PL","pop_max":1707000},"bbox":[21.005347,52.230872,21.005347,52.230872],"geometry":{"type":"Point","coordinates":[21.0053,52.2309]}},{"type":"Feature","properties":{"name":"Pyongyang","iso_a2":"KP","pop_max":3300000},"bbox":[125.752745,39.021385,125.752745,39.021385],"geometry":{"type":"Point","coordinates":[125.7527,39.0214]}},{"type":"Feature","properties":{"name":"Dar es Salaam","iso_a2":"TZ","pop_max":2930000},"bbox":[39.266396,-6.798067,39.266396,-6.798067],"geometry":{"type":"Point","coordinates":[39.2664,-6.7981]}},{"type":"Feature","properties":{"name":"Dublin","iso_a2":"IE","pop_max":1059000},"bbox":[-6.25698,53.346731,-6.25698,53.346731],"geometry":{"type":"Point","coordinates":[-6.257,53.3467]}},{"type":"Feature","properties":{"name":"Monrovia","iso_a2":"LR","pop_max":1041000},"bbox":[-10.79966,6.314582,-10.79966,6.314582],"geometry":{"type":"Point","coordinates":[-10.7997,6.3146]}},{"type":"Feature","properties":{"name":"Kuala Lumpur","iso_a2":"MY","pop_max":1448000},"bbox":[101.688699,3.139797,101.688699,3.139797],"geometry":{"type":"Point","coordinates":[101.6887,3.1398]}},{"type":"Feature","properties":{"name":"Havana","iso_a2":"CU","pop_max":2174000},"bbox":[-82.366128,23.133905,-82.366128,23.133905],"geometry":{"type":"Point","coordinates":[-82.3661,23.1339]}},{"type":"Feature","properties":{"name":"Prague","iso_a2":"CZ","pop_max":1162000},"bbox":[14.422939,50.086967,14.422939,50.086967],"geometry":{"type":"Point","coordinates":[14.4229,50.087]}},{"type":"Feature","properties":{"name":"Kuwait City","iso_a2":"KW","pop_max":2063000},"bbox":[47.976355,29.371664,47.976355,29.371664],"geometry":{"type":"Point","coordinates":[47.9764,29.3717]}},{"type":"Feature","properties":{"name":"Santo Domingo","iso_a2":"DO","pop_max":2154000},"bbox":[-69.929742,18.470745,-69.929742,18.470745],"geometry":{"type":"Point","coordinates":[-69.9297,18.4707]}},{"type":"Feature","properties":{"name":"Accra","iso_a2":"GH","pop_max":2121000},"bbox":[-0.218662,5.55198,-0.218662,5.55198],"geometry":{"type":"Point","coordinates":[-0.2187,5.552]}},{"type":"Feature","properties":{"name":"Tripoli","iso_a2":"LY","pop_max":2189000},"bbox":[13.180012,32.8925,13.180012,32.8925],"geometry":{"type":"Point","coordinates":[13.18,32.8925]}},{"type":"Feature","properties":{"name":"Tel Aviv","iso_a2":"IL","pop_max":3112000},"bbox":[34.768066,32.081937,34.768066,32.081937],"geometry":{"type":"Point","coordinates":[34.7681,32.0819]}},{"type":"Feature","properties":{"name":"Helsinki","iso_a2":"FI","pop_max":1115000},"bbox":[24.932457,60.163804,24.932457,60.163804],"geometry":{"type":"Point","coordinates":[24.9325,60.1638]}},{"type":"Feature","properties":{"name":"København","iso_a2":"DK","pop_max":1085000},"bbox":[12.56154,55.68051,12.56154,55.68051],"geometry":{"type":"Point","coordinates":[12.5615,55.6805]}},{"type":"Feature","properties":{"name":"Abidjan","iso_a2":"CI","pop_max":3802000},"bbox":[-4.020207,5.323126,-4.020207,5.323126],"geometry":{"type":"Point","coordinates":[-4.0202,5.3231]}},{"type":"Feature","properties":{"name":"Brasília","iso_a2":"BR","pop_max":3716996},"bbox":[-47.917998,-15.781394,-47.917998,-15.781394],"geometry":{"type":"Point","coordinates":[-47.918,-15.7814]}},{"type":"Feature","properties":{"name":"Brussels","iso_a2":"BE","pop_max":1743000},"bbox":[4.331371,50.835263,4.331371,50.835263],"geometry":{"type":"Point","coordinates":[4.3314,50.8353]}},{"type":"Feature","properties":{"name":"Dhaka","iso_a2":"BD","pop_max":12797394},"bbox":[90.406634,23.725006,90.406634,23.725006],"geometry":{"type":"Point","coordinates":[90.4066,23.725]}},{"type":"Feature","properties":{"name":"Luanda","iso_a2":"AO","pop_max":5172900},"bbox":[13.232481,-8.83634,13.232481,-8.83634],"geometry":{"type":"Point","coordinates":[13.2325,-8.8363]}},{"type":"Feature","properties":{"name":"Algiers","iso_a2":"DZ","pop_max":3354000},"bbox":[3.048607,36.765011,3.048607,36.765011],"geometry":{"type":"Point","coordinates":[3.0486,36.765]}},{"type":"Feature","properties":{"name":"Yangon","iso_a2":"MM","pop_max":4088000},"bbox":[96.164732,16.7853,96.164732,16.7853],"geometry":{"type":"Point","coordinates":[96.1647,16.7853]}},{"type":"Feature","properties":{"name":"San Francisco","iso_a2":"US","pop_max":3450000},"bbox":[-122.3996,37.784263,-122.3996,37.784263],"geometry":{"type":"Point","coordinates":[-122.3996,37.7843]}},{"type":"Feature","properties":{"name":"Denver","iso_a2":"US","pop_max":2313000},"bbox":[-104.985962,39.741134,-104.985962,39.741134],"geometry":{"type":"Point","coordinates":[-104.986,39.7411]}},{"type":"Feature","properties":{"name":"Houston","iso_a2":"US","pop_max":4459000},"bbox":[-95.348436,29.741273,-95.348436,29.741273],"geometry":{"type":"Point","coordinates":[-95.3484,29.7413]}},{"type":"Feature","properties":{"name":"Miami","iso_a2":"US","pop_max":5585000},"bbox":[-80.226052,25.789557,-80.226052,25.789557],"geometry":{"type":"Point","coordinates":[-80.2261,25.7896]}},{"type":"Feature","properties":{"name":"Atlanta","iso_a2":"US","pop_max":4506000},"bbox":[-84.367642,33.739457,-84.367642,33.739457],"geometry":{"type":"Point","coordinates":[-84.3676,33.7395]}},{"type":"Feature","properties":{"name":"Chicago","iso_a2":"US","pop_max":8990000},"bbox":[-87.635237,41.847961,-87.635237,41.847961],"geometry":{"type":"Point","coordinates":[-87.6352,41.848]}},{"type":"Feature","properties":{"name":"Caracas","iso_a2":"VE","pop_max":2985000},"bbox":[-66.918983,10.502944,-66.918983,10.502944],"geometry":{"type":"Point","coordinates":[-66.919,10.5029]}},{"type":"Feature","properties":{"name":"Kyiv","iso_a2":"UA","pop_max":2709000},"bbox":[30.514682,50.435313,30.514682,50.435313],"geometry":{"type":"Point","coordinates":[30.5147,50.4353]}},{"type":"Feature","properties":{"name":"Dubai","iso_a2":"AE","pop_max":1379000},"bbox":[55.286946,25.214912,55.286946,25.214912],"geometry":{"type":"Point","coordinates":[55.2869,25.2149]}},{"type":"Feature","properties":{"name":"Tashkent","iso_a2":"UZ","pop_max":2184000},"bbox":[69.268823,41.303828,69.268823,41.303828],"geometry":{"type":"Point","coordinates":[69.2688,41.3038]}},{"type":"Feature","properties":{"name":"Madrid","iso_a2":"ES","pop_max":5567000},"bbox":[-3.685297,40.401972,-3.685297,40.401972],"geometry":{"type":"Point","coordinates":[-3.6853,40.402]}},{"type":"Feature","properties":{"name":"Geneva","iso_a2":"CH","pop_max":1240000},"bbox":[6.140028,46.210008,6.140028,46.210008],"geometry":{"type":"Point","coordinates":[6.14,46.21]}},{"type":"Feature","properties":{"name":"Stockholm","iso_a2":"SE","pop_max":1264000},"bbox":[18.0663,59.324127,18.0663,59.324127],"geometry":{"type":"Point","coordinates":[18.0663,59.3241]}},{"type":"Feature","properties":{"name":"Bangkok","iso_a2":"TH","pop_max":6704000},"bbox":[100.514699,13.751945,100.514699,13.751945],"geometry":{"type":"Point","coordinates":[100.5147,13.7519]}},{"type":"Feature","properties":{"name":"Lima","iso_a2":"PE","pop_max":8012000},"bbox":[-77.052008,-12.046067,-77.052008,-12.046067],"geometry":{"type":"Point","coordinates":[-77.052,-12.0461]}},{"type":"Feature","properties":{"name":"Dakar","iso_a2":"SN","pop_max":2604000},"bbox":[-17.475076,14.717778,-17.475076,14.717778],"geometry":{"type":"Point","coordinates":[-17.4751,14.7178]}},{"type":"Feature","properties":{"name":"Johannesburg","iso_a2":"ZA","pop_max":3435000},"bbox":[28.028064,-26.168099,28.028064,-26.168099],"geometry":{"type":"Point","coordinates":[28.0281,-26.1681]}},{"type":"Feature","properties":{"name":"Amsterdam","iso_a2":"NL","pop_max":1031000},"bbox":[4.914694,52.351914,4.914694,52.351914],"geometry":{"type":"Point","coordinates":[4.9147,52.3519]}},{"type":"Feature","properties":{"name":"Casablanca","iso_a2":"MA","pop_max":3181000},"bbox":[-7.618313,33.601922,-7.618313,33.601922],"geometry":{"type":"Point","coordinates":[-7.6183,33.6019]}},{"type":"Feature","properties":{"name":"Seoul","iso_a2":"KR","pop_max":9796000},"bbox":[126.997785,37.568295,126.997785,37.568295],"geometry":{"type":"Point","coordinates":[126.9978,37.5683]}},{"type":"Feature","properties":{"name":"Manila","iso_a2":"PH","pop_max":11100000},"bbox":[120.980271,14.606105,120.980271,14.606105],"geometry":{"type":"Point","coordinates":[120.9803,14.6061]}},{"type":"Feature","properties":{"name":"Monterrey","iso_a2":"MX","pop_max":3712000},"bbox":[-100.331931,25.671941,-100.331931,25.671941],"geometry":{"type":"Point","coordinates":[-100.3319,25.6719]}},{"type":"Feature","properties":{"name":"Berlin","iso_a2":"DE","pop_max":3406000},"bbox":[13.399603,52.523764,13.399603,52.523764],"geometry":{"type":"Point","coordinates":[13.3996,52.5238]}},{"type":"Feature","properties":{"name":"Ürümqi","iso_a2":"CN","pop_max":3575000},"bbox":[87.57306,43.806958,87.57306,43.806958],"geometry":{"type":"Point","coordinates":[87.5731,43.807]}},{"type":"Feature","properties":{"name":"Chengdu","iso_a2":"CN","pop_max":4123000},"bbox":[104.068074,30.671946,104.068074,30.671946],"geometry":{"type":"Point","coordinates":[104.0681,30.6719]}},{"type":"Feature","properties":{"name":"Ōsaka","iso_a2":"JP","pop_max":11294000},"bbox":[135.503754,34.691095,135.503754,34.691095],"geometry":{"type":"Point","coordinates":[135.5038,34.6911]}},{"type":"Feature","properties":{"name":"Kinshasa","iso_a2":"CD","pop_max":7843000},"bbox":[15.313026,-4.327778,15.313026,-4.327778],"geometry":{"type":"Point","coordinates":[15.313,-4.3278]}},{"type":"Feature","properties":{"name":"New Delhi","iso_a2":"IN","pop_max":317797},"bbox":[77.19998,28.600023,77.19998,28.600023],"geometry":{"type":"Point","coordinates":[77.2,28.6]}},{"type":"Feature","properties":{"name":"Bengaluru","iso_a2":"IN","pop_max":6787000},"bbox":[77.558064,12.971941,77.558064,12.971941],"geometry":{"type":"Point","coordinates":[77.5581,12.9719]}},{"type":"Feature","properties":{"name":"Athens","iso_a2":"GR","pop_max":3242000},"bbox":[23.731375,37.985272,23.731375,37.985272],"geometry":{"type":"Point","coordinates":[23.7314,37.9853]}},{"type":"Feature","properties":{"name":"Baghdad","iso_a2":"IQ","pop_max":5054000},"bbox":[44.391923,33.340594,44.391923,33.340594],"geometry":{"type":"Point","coordinates":[44.3919,33.3406]}},{"type":"Feature","properties":{"name":"Addis Ababa","iso_a2":"ET","pop_max":3100000},"bbox":[38.698059,9.035256,38.698059,9.035256],"geometry":{"type":"Point","coordinates":[38.6981,9.0353]}},{"type":"Feature","properties":{"name":"Tehran","iso_a2":"IR","pop_max":7873000},"bbox":[51.422398,35.673889,51.422398,35.673889],"geometry":{"type":"Point","coordinates":[51.4224,35.6739]}},{"type":"Feature","properties":{"name":"Vancouver","iso_a2":"CA","pop_max":2313328},"bbox":[-123.12359,49.275362,-123.12359,49.275362],"geometry":{"type":"Point","coordinates":[-123.1236,49.2754]}},{"type":"Feature","properties":{"name":"Toronto","iso_a2":"CA","pop_max":5213000},"bbox":[-79.389459,43.664645,-79.389459,43.664645],"geometry":{"type":"Point","coordinates":[-79.3895,43.6646]}},{"type":"Feature","properties":{"name":"Buenos Aires","iso_a2":"AR","pop_max":12795000},"bbox":[-58.432513,-34.610715,-58.432513,-34.610715],"geometry":{"type":"Point","coordinates":[-58.4325,-34.6107]}},{"type":"Feature","properties":{"name":"Kabul","iso_a2":"AF","pop_max":3277000},"bbox":[69.181314,34.518636,69.181314,34.518636],"geometry":{"type":"Point","coordinates":[69.1813,34.5186]}},{"type":"Feature","properties":{"name":"Vienna","iso_a2":"AT","pop_max":2400000},"bbox":[16.364693,48.201961,16.364693,48.201961],"geometry":{"type":"Point","coordinates":[16.3647,48.202]}},{"type":"Feature","properties":{"name":"Melbourne","iso_a2":"AU","pop_max":4170000},"bbox":[144.97307,-37.818086,144.97307,-37.818086],"geometry":{"type":"Point","coordinates":[144.9731,-37.8181]}},{"type":"Feature","properties":{"name":"Taipei","iso_a2":"TW","pop_max":6900273},"bbox":[121.568333,25.035833,121.568333,25.035833],"geometry":{"type":"Point","coordinates":[121.5683,25.0358]}},{"type":"Feature","properties":{"name":"Auckland","iso_a2":"NZ","pop_max":1377200},"bbox":[174.763027,-36.848055,174.763027,-36.848055],"geometry":{"type":"Point","coordinates":[174.763,-36.8481]}},{"type":"Feature","properties":{"name":"Los Angeles","iso_a2":"US","pop_max":12500000},"bbox":[-118.231986,34.049219,-118.231986,34.049219],"geometry":{"type":"Point","coordinates":[-118.232,34.0492]}},{"type":"Feature","properties":{"name":"Washington,  D.C.","iso_a2":"US","pop_max":4338000},"bbox":[-77.011364,38.901495,-77.011364,38.901495],"geometry":{"type":"Point","coordinates":[-77.0114,38.9015]}},{"type":"Feature","properties":{"name":"New York","iso_a2":"US","pop_max":19040000},"bbox":[-73.995718,40.721562,-73.995718,40.721562],"geometry":{"type":"Point","coordinates":[-73.9957,40.7216]}},{"type":"Feature","properties":{"name":"London","iso_a2":"GB","pop_max":8567000},"bbox":[-0.118668,51.501941,-0.118668,51.501941],"geometry":{"type":"Point","coordinates":[-0.1187,51.5019]}},{"type":"Feature","properties":{"name":"Istanbul","iso_a2":"TR","pop_max":10061000},"bbox":[28.974277,41.017602,28.974277,41.017602],"geometry":{"type":"Point","coordinates":[28.9743,41.0176]}},{"type":"Feature","properties":{"name":"Riyadh","iso_a2":"SA","pop_max":4465000},"bbox":[46.720487,24.634497,46.720487,24.634497],"geometry":{"type":"Point","coordinates":[46.7205,24.6345]}},{"type":"Feature","properties":{"name":"Cape Town","iso_a2":"ZA","pop_max":3215000},"bbox":[18.433042,-33.918065,18.433042,-33.918065],"geometry":{"type":"Point","coordinates":[18.433,-33.9181]}},{"type":"Feature","properties":{"name":"Moscow","iso_a2":"RU","pop_max":10452000},"bbox":[37.613577,55.75411,37.613577,55.75411],"geometry":{"type":"Point","coordinates":[37.6136,55.7541]}},{"type":"Feature","properties":{"name":"Mexico City","iso_a2":"MX","pop_max":19028000},"bbox":[-99.132934,19.444388,-99.132934,19.444388],"geometry":{"type":"Point","coordinates":[-99.1329,19.4444]}},{"type":"Feature","properties":{"name":"Lagos","iso_a2":"NG","pop_max":9466000},"bbox":[3.389585,6.445208,3.389585,6.445208],"geometry":{"type":"Point","coordinates":[3.3896,6.4452]}},{"type":"Feature","properties":{"name":"Rome","iso_a2":"IT","pop_max":3339000},"bbox":[12.481313,41.897902,12.481313,41.897902],"geometry":{"type":"Point","coordinates":[12.4813,41.8979]}},{"type":"Feature","properties":{"name":"Beijing","iso_a2":"CN","pop_max":11106000},"bbox":[116.394201,39.90172,116.394201,39.90172],"geometry":{"type":"Point","coordinates":[116.3942,39.9017]}},{"type":"Feature","properties":{"name":"Nairobi","iso_a2":"KE","pop_max":3010000},"bbox":[36.814711,-1.281401,36.814711,-1.281401],"geometry":{"type":"Point","coordinates":[36.8147,-1.2814]}},{"type":"Feature","properties":{"name":"Jakarta","iso_a2":"ID","pop_max":9125000},"bbox":[106.827492,-6.172472,106.827492,-6.172472],"geometry":{"type":"Point","coordinates":[106.8275,-6.1725]}},{"type":"Feature","properties":{"name":"Bogota","iso_a2":"CO","pop_max":7772000},"bbox":[-74.08529,4.598369,-74.08529,4.598369],"geometry":{"type":"Point","coordinates":[-74.0853,4.5984]}},{"type":"Feature","properties":{"name":"Cairo","iso_a2":"EG","pop_max":11893000},"bbox":[31.248022,30.051906,31.248022,30.051906],"geometry":{"type":"Point","coordinates":[31.248,30.0519]}},{"type":"Feature","properties":{"name":"Shanghai","iso_a2":"CN","pop_max":14987000},"bbox":[121.434559,31.218398,121.434559,31.218398],"geometry":{"type":"Point","coordinates":[121.4346,31.2184]}},{"type":"Feature","properties":{"name":"Tokyo","iso_a2":"JP","pop_max":35676000},"bbox":[139.749462,35.686963,139.749462,35.686963],"geometry":{"type":"Point","coordinates":[139.7495,35.687]}},{"type":"Feature","properties":{"name":"Mumbai","iso_a2":"IN","pop_max":18978000},"bbox":[72.875839,19.068408,72.875839,19.068408],"geometry":{"type":"Point","coordinates":[72.8758,19.0684]}},{"type":"Feature","properties":{"name":"Paris","iso_a2":"FR","pop_max":9904000},"bbox":[2.352992,48.858092,2.352992,48.858092],"geometry":{"type":"Point","coordinates":[2.353,48.8581]}},{"type":"Feature","properties":{"name":"Santiago","iso_a2":"CL","pop_max":5720000},"bbox":[-70.650504,-33.440205,-70.650504,-33.440205],"geometry":{"type":"Point","coordinates":[-70.6505,-33.4402]}},{"type":"Feature","properties":{"name":"Kolkata","iso_a2":"IN","pop_max":14787000},"bbox":[88.369126,22.569579,88.369126,22.569579],"geometry":{"type":"Point","coordinates":[88.3691,22.5696]}},{"type":"Feature","properties":{"name":"Rio de Janeiro","iso_a2":"BR","pop_max":11748000},"bbox":[-43.212117,-22.907308,-43.212117,-22.907308],"geometry":{"type":"Point","coordinates":[-43.2121,-22.9073]}},{"type":"Feature","properties":{"name":"São Paulo","iso_a2":"BR","pop_max":18845000},"bbox":[-46.626966,-23.556734,-46.626966,-23.556734],"geometry":{"type":"Point","coordinates":[-46.627,-23.5567]}},{"type":"Feature","properties":{"name":"Sydney","iso_a2":"AU","pop_max":4630000},"bbox":[151.212548,-33.871373,151.212548,-33.871373],"geometry":{"type":"Point","coordinates":[151.2125,-33.8714]}},{"type":"Feature","properties":{"name":"Singapore","iso_a2":"SG","pop_max":5183700},"bbox":[103.853875,1.294979,103.853875,1.294979],"geometry":{"type":"Point","coordinates":[103.8539,1.295]}},{"type":"Feature","properties":{"name":"Hong Kong","iso_a2":"HK","pop_max":7206000},"bbox":[114.183064,22.306927,114.183064,22.306927],"geometry":{"type":"Point","coordinates":[114.1831,22.3069]}}]}